[
    {"id":"hq-busan","name":"하카 직영 부산본점","type":"직영점","sido":"부산","addr":"부산진구 중앙대로 680","lat":35.1576,"lng":129.0595,"phone":"051-000-0000","hours":"10:00-21:00"},
    {"id":"pt-seoul-gangnam","name":"하카 파트너 강남점","type":"파트너점","sido":"서울","addr":"강남구 테헤란로 231","lat":37.5013,"lng":127.0396,"phone":"02-000-0000","hours":"10:00-22:00"},
    {"id":"pt-seoul-hongdae","name":"하카 파트너 홍대입구","type":"파트너점","sido":"서울","addr":"마포구 양화로 188","lat":37.5563,"lng":126.9236,"phone":"02-000-0001","hours":"11:00-22:00"},
    {"id":"pt-incheon-bupyeong","name":"하카 파트너 부평","type":"파트너점","sido":"인천","addr":"부평구 부평대로 20","lat":37.4927,"lng":126.7225,"phone":"032-000-0000","hours":"11:00-21:00"},
    {"id":"pt-daegu-dongseongno","name":"하카 파트너 동성로","type":"파트너점","sido":"대구","addr":"중구 동성로 30","lat":35.8685,"lng":128.5967,"phone":"053-000-0000","hours":"11:00-21:00"},
    {"id":"pt-gwangju-chungjangro","name":"하카 파트너 충장로","type":"파트너점","sido":"광주","addr":"동구 충장로 80","lat":35.1461,"lng":126.9185,"phone":"062-000-0000","hours":"11:00-21:00"},
    {"id":"pt-daejeon-eunhaeng","name":"하카 파트너 은행동","type":"파트너점","sido":"대전","addr":"중앙로 127","lat":36.3273,"lng":127.4274,"phone":"042-000-0000","hours":"11:00-21:00"},
    {"id":"pt-ulsan-samseong","name":"하카 파트너 울산삼산","type":"파트너점","sido":"울산","addr":"남구 삼산로 200","lat":35.5384,"lng":129.3116,"phone":"052-000-0000","hours":"11:00-21:00"}
  ]
  